City_ID,City,Lat,Lng,Max Temp,Humidity,Cloudiness,Wind Speed,Country,Date
0,xiaoweizhai,26.1903,107.5125,278.32,88,100,2.56,CN,1699848179
1,udachny,66.4167,112.4,261.18,84,100,3.64,RU,1699848104
2,chifeng,42.2683,118.9636,273.84,47,0,3.56,CN,1699848179
3,sardarshahr,28.4333,74.4833,295.24,39,2,2.26,IN,1699848180
4,ushuaia,-54.8,-68.3,282.96,53,0,4.12,AR,1699848084
5,olonkinbyen,70.9221,-8.7187,269.95,67,100,2.57,SJ,1699848088
6,puerto natales,-51.7236,-72.4875,278.09,86,100,2.21,CL,1699847820
7,port-aux-francais,-49.35,70.2167,277.59,79,100,2.9,TF,1699847788
8,mar del plata,-38.0023,-57.5575,284.19,75,0,2.06,AR,1699847930
9,adamstown,-25.066,-130.1015,295.94,86,99,8.81,PN,1699847798
10,leh,34.1667,77.5833,275.4,40,70,1.73,IN,1699848180
11,sivaganga,9.8667,78.4833,300.38,66,99,7.2,IN,1699848181
12,margaret river,-33.95,115.0667,297.79,49,55,3.03,AU,1699848181
13,kodiak,57.79,-152.4072,271.88,80,40,1.54,US,1699847889
14,chuguyevka,44.1653,133.8633,270.16,62,89,4.5,RU,1699848181
15,remire-montjoly,4.9167,-52.2667,300.07,83,1,4.8,GF,1699847900
16,aioun,16.6614,-9.6149,299.32,19,27,4.35,MR,1699848181
17,ban houakhoua,20.2453,100.4547,301.36,71,62,0.71,LA,1699848181
18,bredasdorp,-34.5322,20.0403,286.61,86,53,0.75,ZA,1699848091
19,quellon,-43.1167,-73.6167,280.9,85,100,5.18,CL,1699847917
20,naze,28.3667,129.4833,291.66,64,96,8.76,JP,1699848182
21,college,64.8569,-147.8028,261.73,86,92,1.75,US,1699848091
22,sur,22.5667,59.5289,299.72,45,86,4.13,OM,1699847874
23,kapa'a,22.0752,-159.319,300.14,81,75,7.72,US,1699848183
24,port mathurin,-19.6833,63.4167,298.32,78,0,2.01,MU,1699848067
25,laguna,38.421,-121.4238,289.2,64,0,2.06,US,1699848087
26,okahandja,-21.9833,16.9167,294.91,43,21,2.43,NA,1699848183
27,bethel,41.3712,-73.414,274.23,77,0,0.0,US,1699847764
28,shindand,33.3029,62.1474,287.56,34,17,0.89,AF,1699848183
29,vadso,70.0744,29.7487,268.24,80,20,1.54,NO,1699848184
30,quatre cocos,-20.2078,57.7625,299.87,65,1,2.19,MU,1699848184
31,codrington,-38.2667,141.9667,289.67,53,5,6.96,AU,1699848082
32,noyabrsk,63.1994,75.4507,263.84,88,44,5.36,RU,1699848184
33,whitehorse,60.7161,-135.0538,269.58,80,100,3.6,CA,1699848086
34,isafjordur,66.0755,-23.124,274.43,84,100,2.4,IS,1699848185
35,port lincoln,-34.7333,135.8667,290.53,62,100,6.15,AU,1699848185
36,wailua homesteads,22.0669,-159.378,299.39,81,75,7.72,US,1699848104
37,flin flon,54.7682,-101.865,272.63,84,100,5.37,CA,1699848185
38,dakhla,23.6848,-15.958,295.04,49,25,4.06,EH,1699848186
39,grytviken,-54.2811,-36.5092,275.54,91,100,1.84,GS,1699847963
40,papatowai,-46.5619,169.4708,283.94,96,100,2.46,NZ,1699848081
41,pyhajarvi,67.0701,27.2176,262.0,98,100,1.81,FI,1699848186
42,hamilton,39.1834,-84.5333,281.36,73,0,0.89,US,1699848052
43,bilibino,68.0546,166.4372,256.45,98,100,2.44,RU,1699847788
44,igarka,67.4667,86.5833,269.15,96,100,4.92,RU,1699848187
45,cam ranh,11.9214,109.1591,303.13,70,40,4.12,VN,1699848187
46,alice springs,-23.7,133.8833,308.9,21,86,4.63,AU,1699847684
47,bol'shoye boldino,55.0059,45.3142,281.05,79,94,9.75,RU,1699848187
48,waitangi,-43.9535,-176.5597,288.61,79,100,3.13,NZ,1699848187
49,berdigestyakh,62.0989,126.6992,258.21,92,99,3.61,RU,1699847801
50,geraldton,-28.7667,114.6,300.38,47,0,5.66,AU,1699848188
51,jamestown,42.097,-79.2353,275.95,76,0,0.89,US,1699847854
52,arraial do cabo,-22.9661,-42.0278,297.14,88,93,2.42,BR,1699848134
53,ilulissat,69.2167,-51.1,253.63,84,20,2.64,GL,1699847837
54,lihue,21.9789,-159.3672,299.73,76,75,7.72,US,1699848102
55,tazacorte,28.629,-17.9293,296.57,37,20,4.02,ES,1699847656
56,kirkwall,58.9848,-2.9587,281.46,81,8,13.06,GB,1699848189
57,coahuayana de hidalgo,18.7,-103.6583,298.57,89,78,1.48,MX,1699848190
58,la'ie,21.6477,-157.9253,301.13,81,45,4.02,US,1699847726
59,zambezi,-13.5432,23.1047,291.4,87,97,1.89,ZM,1699848190
60,coaticook,45.1334,-71.7991,271.02,82,7,0.4,CA,1699848080
61,albany,42.6001,-73.9662,271.33,82,0,1.44,US,1699848191
62,thompson,55.7435,-97.8558,271.24,100,100,1.03,CA,1699848056
63,jining,35.405,116.5814,280.46,21,100,0.81,CN,1699848192
64,puerto aysen,-45.4,-72.7,278.46,99,100,2.54,CL,1699848192
65,noumea,-22.2763,166.4572,299.14,57,24,9.26,NC,1699848011
66,dudinka,69.4058,86.1778,270.75,96,100,5.36,RU,1699848193
67,awjilah,29.1081,21.2869,291.33,45,0,3.41,LY,1699847905
68,brooks,50.5834,-111.8851,273.14,64,100,2.57,CA,1699848024
69,yellowknife,62.456,-114.3525,265.6,95,75,8.75,CA,1699848077
70,kuta,-8.7233,115.1723,303.15,79,40,2.24,ID,1699847933
71,teguise,29.0605,-13.564,289.27,88,2,2.57,ES,1699847875
72,lagunas,-5.2269,-75.6753,298.63,86,72,1.19,PE,1699848194
73,muli,2.9167,73.5667,301.27,70,42,0.4,MV,1699848194
74,nova olimpia,-14.7972,-57.2881,302.41,48,78,1.92,BR,1699848194
75,funtua,11.5233,7.3081,292.76,25,31,4.36,NG,1699848194
76,barreiras,-12.1528,-44.99,299.72,34,84,0.85,BR,1699848034
77,vilhena,-12.7406,-60.1458,297.14,77,92,1.3,BR,1699848195
78,carnarvon,-24.8667,113.6333,296.91,62,28,5.31,AU,1699848016
79,tura,25.5198,90.2201,299.06,56,0,0.6,IN,1699848104
80,blackmans bay,-43.0167,147.3167,294.22,37,2,1.79,AU,1699848077
81,paka,4.6374,103.4368,305.11,70,20,1.03,MY,1699848196
82,boa vista,2.8197,-60.6733,301.14,65,0,3.6,BR,1699848196
83,atafu village,-8.5421,-172.5159,302.63,68,44,2.12,TK,1699848082
84,georgetown,5.4112,100.3354,305.11,74,20,3.09,MY,1699848181
85,egilsstadir,65.2653,-14.3948,273.1,93,20,3.6,IS,1699848197
86,kharkhorin,47.1975,102.8238,267.47,58,41,0.88,MN,1699848197
87,nemuro,43.3236,145.575,278.23,43,26,3.11,JP,1699848197
88,demopolis,32.5176,-87.8364,287.12,100,100,0.0,US,1699848198
89,srivardhan,18.0333,73.0167,302.66,48,35,2.53,IN,1699848198
90,invercargill,-46.4,168.35,284.83,90,100,3.13,NZ,1699848175
91,olyokminsk,60.3736,120.4264,264.92,83,99,1.78,RU,1699848198
92,tarakan,3.3,117.6333,301.87,89,40,2.06,ID,1699848198
93,arvayheer,46.2639,102.775,271.28,14,15,0.83,MN,1699848198
94,salinas,36.6777,-121.6555,287.91,88,0,2.06,US,1699848093
95,porto belo,-27.1578,-48.5531,297.15,93,100,1.36,BR,1699848199
96,dhidhdhoo,6.8833,73.1,301.28,74,94,2.77,MV,1699848199
97,punta arenas,-53.15,-70.9167,282.21,61,75,7.2,CL,1699847975
98,utrik,11.2278,169.8474,301.03,83,99,9.15,MH,1699848200
99,praia da vitoria,38.7333,-27.0667,290.29,82,75,1.33,PT,1699848200
100,buka,40.8108,69.1986,282.06,44,93,0.86,UZ,1699848200
101,fort bragg,35.139,-79.006,283.9,79,20,0.45,US,1699848200
102,stanley,54.868,-1.6985,280.11,95,100,2.57,GB,1699847810
103,tefe,-3.3542,-64.7114,298.43,82,29,1.08,BR,1699848201
104,arno,60.1167,18.6333,276.36,97,100,4.97,SE,1699848201
105,flying fish cove,-10.4217,105.6791,300.97,69,40,6.17,CX,1699847723
106,besisahar,28.2313,84.3761,295.48,51,0,2.12,NP,1699848202
107,edinburgh of the seven seas,-37.0676,-12.3116,287.5,81,54,10.96,SH,1699848202
108,gaalkacyo,6.7697,47.4308,299.02,77,19,5.0,SO,1699847995
109,harper,4.375,-7.7169,298.69,89,36,2.94,LR,1699848202
110,le morne-rouge,14.7667,-61.1333,296.91,79,77,6.44,MQ,1699848203
111,vorkuta,67.5,64.0,263.27,96,93,2.61,RU,1699848203
112,san patricio,28.017,-97.5169,290.2,97,100,5.6,US,1699848203
113,lorengau,-2.0226,147.2712,302.23,67,62,1.49,PG,1699847906
114,yokadouma,3.5167,15.05,293.78,100,100,0.72,CM,1699848203
115,okhotsk,59.3833,143.3,260.01,75,1,8.72,RU,1699848204
116,pisco,-13.7,-76.2167,292.6,88,15,3.09,PE,1699848149
117,aksuat,48.7167,83.7,274.2,98,100,2.76,KZ,1699848204
118,kudahuvadhoo,2.6708,72.8944,300.66,75,91,1.53,MV,1699848204
119,concepcion del oro,24.6333,-101.4167,282.01,94,100,1.48,MX,1699848205
120,kaga bandoro,6.9896,19.1874,294.14,98,99,0.89,CF,1699848205
121,tralee,52.2704,-9.7026,282.58,88,86,14.96,IE,1699848205
122,aasiaat,68.7098,-52.8699,258.7,87,18,1.94,GL,1699848205
123,longyearbyen,78.2186,15.6401,266.06,79,75,10.8,SJ,1699847804
124,chonchi,-42.6128,-73.8092,280.44,89,98,1.82,CL,1699848116
125,qingyuan,23.7,113.0333,293.14,62,8,5.32,CN,1699848206
126,gersheim,49.15,7.2,284.1,96,75,8.75,DE,1699848206
127,iqaluit,63.7506,-68.5145,254.09,77,20,2.57,CA,1699848089
128,howrah,22.5892,88.3103,299.15,69,15,4.12,IN,1699848207
129,port alfred,-33.5906,26.891,287.69,86,83,0.45,ZA,1699848207
130,langsa,4.4683,97.9683,300.95,79,95,1.07,ID,1699848207
131,hawaiian paradise park,19.5933,-154.9731,296.5,94,58,0.89,US,1699848207
132,noosa heads,-26.3833,153.15,303.89,67,3,7.85,AU,1699848207
133,shabo,46.1326,30.386,280.65,75,20,1.79,UA,1699848207
134,peniche,39.3558,-9.3811,291.09,94,17,4.34,PT,1699848208
135,pinheiro machado,-31.5783,-53.3811,288.77,99,100,2.36,BR,1699848208
136,santa ines,-3.6667,-45.38,296.93,79,5,1.56,BR,1699848101
137,selfoss,63.9331,-20.9971,275.4,61,100,6.14,IS,1699848147
138,kourou,5.1552,-52.6478,299.15,89,3,3.55,GF,1699848008
139,ola,59.5833,151.2833,262.77,60,100,4.99,RU,1699848209
140,maceio,-9.6658,-35.7353,294.84,100,0,1.54,BR,1699848015
141,matoury,4.8483,-52.3317,299.07,87,2,3.21,GF,1699848209
142,contamana,-7.3333,-75.0167,299.49,75,66,1.22,PE,1699848209
143,ardakan,32.31,54.0175,289.67,31,97,1.14,IR,1699848209
144,santa elena de uairen,4.6167,-61.1333,293.28,84,58,2.1,VE,1699848210
145,karratha,-20.7377,116.8463,304.19,33,32,7.84,AU,1699848210
146,ujae,8.9322,165.7642,300.96,84,99,7.97,MH,1699848210
147,mburucuya,-28.0454,-58.2245,298.09,85,68,5.07,AR,1699848210
148,vorgashor,67.5833,63.95,262.61,97,95,2.7,RU,1699848095
149,hermanus,-34.4187,19.2345,287.18,87,14,4.45,ZA,1699848211
150,erenhot,43.6475,111.9767,270.88,34,97,2.67,CN,1699848211
151,zhuanghe,39.7008,122.9911,276.97,33,0,3.35,CN,1699848211
152,santa marta,11.2408,-74.199,303.65,71,20,2.57,CO,1699847941
153,st. john's,47.5649,-52.7093,271.92,81,100,5.14,CA,1699847598
154,vila velha,-20.3297,-40.2925,299.12,89,0,3.6,BR,1699848212
155,kone,-21.0595,164.8658,299.24,49,53,4.59,NC,1699848212
156,palikir - national government center,6.9248,158.1611,301.62,70,100,5.8,FM,1699847961
157,tema,5.667,-0.0166,300.38,89,0,2.06,GH,1699848214
158,east london,-33.0153,27.9116,287.67,77,0,3.6,ZA,1699848214
159,comodoro rivadavia,-45.8667,-67.5,284.07,40,0,11.83,AR,1699848214
160,ancud,-41.8697,-73.8203,281.93,84,92,5.01,CL,1699848211
161,tofol,5.3248,163.0078,301.03,78,100,5.14,FM,1699847963
162,nar'yan-mar,67.6713,53.087,261.54,94,42,2.24,RU,1699848216
163,linxia chengguanzhen,35.6003,103.2064,278.51,48,0,2.22,CN,1699848216
164,iskateley,67.6803,53.1512,261.49,94,44,2.24,RU,1699848181
165,petropavlovsk-kamchatsky,53.0452,158.6483,272.48,74,40,12.52,RU,1699848216
166,badger,64.8,-147.5333,261.68,89,85,1.56,US,1699848216
167,christchurch,-43.5333,172.6333,298.26,31,61,8.75,NZ,1699848004
168,ribeira grande,38.5167,-28.7,290.25,86,100,3.13,PT,1699848177
169,penzance,50.1186,-5.5371,287.53,92,100,15.82,GB,1699848217
170,acs,47.7123,18.0113,277.05,93,0,0.51,HU,1699848217
171,greymouth,-42.4667,171.2,288.05,85,100,4.67,NZ,1699847941
172,macas,-2.3167,-78.1167,293.04,97,58,1.35,EC,1699848218
173,callao,-12.0667,-77.15,294.1,77,100,6.17,PE,1699848218
174,cabo san lucas,22.8909,-109.9124,300.24,68,63,2.29,MX,1699848022
175,ugoofaaru,5.6667,73.0,301.07,74,84,2.42,MV,1699848219
176,macapa,0.0389,-51.0664,301.14,78,0,6.17,BR,1699848219
177,hithadhoo,-0.6,73.0833,300.51,79,97,4.26,MV,1699848220
178,kerikeri,-35.2268,173.9474,292.45,53,31,3.84,NZ,1699848220
179,chamzinka,54.4019,45.7839,280.28,77,95,10.1,RU,1699848220
180,eersel,51.3575,5.3181,282.6,94,100,2.06,NL,1699848221
181,holualoa,19.6228,-155.9522,296.36,85,27,2.13,US,1699848221
182,sefaatli,39.5043,34.7563,284.6,59,89,1.78,TR,1699848221
183,rongelap,11.1635,166.8941,301.12,84,100,8.88,MH,1699848221
184,constantia,44.1833,28.65,277.53,51,100,1.68,RO,1699848222
185,nouadhibou,20.931,-17.0347,293.14,77,0,5.14,MR,1699848222
186,mount gambier,-37.8333,140.7667,291.33,44,33,4.7,AU,1699848222
187,crane,31.3974,-102.3501,287.15,80,100,3.96,US,1699848222
188,khorixas,-20.3667,14.9667,294.87,19,7,0.32,NA,1699847935
189,hanawa,40.1836,140.7872,274.73,74,99,4.13,JP,1699848223
190,saint-philippe,-21.3585,55.7679,297.1,79,67,2.06,RE,1699848223
191,sitka,57.0531,-135.33,275.8,83,3,2.96,US,1699848088
192,howard springs,-12.497,131.047,305.86,59,47,3.33,AU,1699847872
193,kapit,2.0167,112.9333,304.96,59,96,0.88,MY,1699848224
194,blenheim,-41.516,173.9528,296.22,46,85,1.79,NZ,1699848224
195,anadyr,64.75,177.4833,271.43,86,75,6.0,RU,1699848224
196,lerwick,60.1545,-1.1494,281.05,76,20,9.97,GB,1699848224
197,porto novo,6.4965,2.6036,301.05,90,23,1.59,BJ,1699847922
198,fisterra,42.9049,-9.2629,292.05,94,98,12.77,ES,1699848224
199,cabedelo,-6.9811,-34.8339,297.52,78,27,2.93,BR,1699848225
200,oranjestad,12.524,-70.027,302.12,83,40,8.23,AW,1699848151
201,bonthe,7.5264,-12.505,299.18,85,91,1.17,SL,1699848225
202,lahat,-3.8,103.5333,306.93,50,80,1.73,ID,1699848225
203,rafsanjan,30.4067,55.9939,289.3,23,50,0.64,IR,1699848225
204,alofi,-19.0595,-169.9187,297.09,88,100,5.66,NU,1699847934
205,taltal,-25.4,-70.4833,289.87,74,1,1.84,CL,1699848021
206,griffith,41.5284,-87.4237,282.53,60,0,4.12,US,1699848226
207,madinat ash shamal,26.1293,51.2009,299.97,63,73,2.91,QA,1699848226
208,prado,-17.3411,-39.2208,296.54,87,2,5.65,BR,1699847874
209,avarua,-21.2078,-159.775,295.18,68,99,4.12,CK,1699847877
210,west island,-12.1568,96.8225,301.14,78,75,4.63,CC,1699848101
211,yreka,41.7354,-122.6345,283.35,68,0,1.54,US,1699848083
212,joal-fadiout,14.1667,-16.8333,299.12,42,100,4.63,SN,1699848227
213,mondragon,12.5157,124.7523,301.68,81,72,4.44,PH,1699848227
214,sinabang,2.4803,96.3801,301.38,77,76,1.42,ID,1699847730
215,santa ana,33.7456,-117.8678,295.74,38,20,2.57,US,1699847942
216,tete,-16.1564,33.5867,300.2,65,20,3.6,MZ,1699848076
217,male,4.1748,73.5089,302.12,84,75,2.06,MV,1699848022
218,kavaratti,10.5669,72.642,301.36,71,72,2.21,IN,1699848093
219,palmas de monte alto,-14.2672,-43.1619,298.46,32,8,1.47,BR,1699848229
220,new norfolk,-42.7826,147.0587,294.87,32,15,4.77,AU,1699847911
221,aykhal,66.0,111.5,260.47,94,99,4.16,RU,1699848229
222,hun,29.1268,15.9477,290.24,80,0,0.89,LY,1699848229
223,vuktyl,63.8567,57.3094,264.88,96,89,1.79,RU,1699848229
224,puerto ayora,-0.7393,-90.3518,297.9,93,77,3.13,EC,1699848061
225,mount isa,-20.7333,139.5,311.02,20,6,6.17,AU,1699847905
226,tibagi,-24.5094,-50.4136,297.04,64,55,1.05,BR,1699848230
227,ocos,14.5094,-92.1933,300.42,80,11,1.66,GT,1699848230
228,choibalsan,48.0667,114.5,268.08,79,1,4.39,MN,1699848230
229,masterton,-40.9597,175.6575,290.06,63,31,6.57,NZ,1699848231
230,paragominas,-2.9667,-47.4833,297.14,74,37,1.63,BR,1699848140
231,bamboo flat,11.7,92.7167,300.2,83,75,2.06,IN,1699848231
232,tiksi,71.6872,128.8694,256.05,90,78,5.96,RU,1699847802
233,nizhneudinsk,54.9076,99.0276,271.64,62,85,0.85,RU,1699848231
234,george town,5.4112,100.3354,305.11,74,20,3.09,MY,1699848004
235,blackwater,-23.5833,148.8833,306.87,27,0,4.23,AU,1699848231
236,merizo village,13.2658,144.6691,304.0,83,22,8.07,GU,1699848231
237,vernon,50.2581,-119.2691,280.24,71,100,1.03,CA,1699848040
238,grand falls-windsor,48.9332,-55.6649,267.73,91,12,2.25,CA,1699847965
239,palmas,-10.2128,-48.3603,300.08,74,0,1.54,BR,1699848232
240,kasama,-10.2129,31.1808,291.63,88,100,0.46,ZM,1699848232
241,bansang,13.4333,-14.65,297.71,32,96,1.43,GM,1699848232
242,belyy yar,53.6039,91.3903,266.09,86,100,1.0,RU,1699848232
243,novo aripuana,-5.1206,-60.3797,300.93,63,64,0.95,BR,1699848232
244,kailua-kona,19.6406,-155.9956,300.13,86,75,4.12,US,1699847663
245,nikolayevsk-on-amure,53.1406,140.73,268.13,89,99,4.86,RU,1699848233
246,ndele,8.4109,20.6473,294.46,94,99,0.24,CF,1699848233
247,nuuk,64.1835,-51.7216,262.82,87,11,4.35,GL,1699847933
248,ilebo,-4.3167,20.5833,292.92,99,99,0.57,CD,1699848233
249,vilyuchinsk,52.9306,158.4028,273.3,72,43,1.89,RU,1699847899
250,baotou,40.6522,109.8222,272.74,27,100,1.8,CN,1699848233
251,port elizabeth,-33.918,25.5701,288.31,79,0,5.14,ZA,1699848091
252,barah,13.7,30.3667,300.83,29,14,2.94,SD,1699848234
253,antofagasta,-23.65,-70.4,289.75,80,45,2.35,CL,1699847828
254,kapuskasing,49.4169,-82.4331,274.2,100,100,8.23,CA,1699847668
255,kirensk,57.7853,108.1119,265.91,69,80,2.24,RU,1699848234
256,isangel,-19.55,169.2667,299.21,73,75,4.63,VU,1699848234
257,mahdia,35.5047,11.0622,293.12,68,65,7.6,TN,1699848234
258,luderitz,-26.6481,15.1594,290.54,58,0,7.43,NA,1699848235
259,valdivia,-39.8142,-73.2459,278.2,91,4,0.69,CL,1699848080
260,las vegas,36.175,-115.1372,289.64,23,20,4.12,US,1699848012
261,tateyama,34.9833,139.8667,284.6,66,86,7.83,JP,1699847721
262,rabenau,50.6833,8.8667,278.39,96,100,2.38,DE,1699848235
263,portland,45.5234,-122.6762,286.27,90,100,0.89,US,1699848074
264,ar rutbah,33.0381,40.2848,291.62,31,89,2.97,IQ,1699848236
265,uturoa,-16.7333,-151.4333,300.69,76,67,1.92,PF,1699848202
266,aswan,24.0934,32.907,297.76,60,0,2.57,EG,1699848236
267,talnakh,69.4865,88.3972,268.82,97,100,2.87,RU,1699848237
268,hastings,50.8552,0.5729,286.77,96,100,10.14,GB,1699848107
269,tughyl,47.7252,84.2063,276.28,96,100,2.96,KZ,1699848237
270,riverside,33.7333,-116.0508,292.14,41,0,2.06,US,1699848084
271,sweet home,44.3976,-122.7362,284.48,92,100,1.95,US,1699848238
272,wellington,-41.2866,174.7756,290.96,82,40,12.35,NZ,1699848020
273,priozersk,61.0393,30.1291,275.37,87,100,8.21,RU,1699848238
274,labrador city,52.9463,-66.9114,265.1,93,100,3.09,CA,1699848238
275,soio,-6.1349,12.3689,298.7,88,92,2.54,AO,1699848238
276,kralendijk,12.15,-68.2667,301.77,84,100,10.53,BQ,1699848239
277,qaqortoq,60.7167,-46.0333,264.26,91,26,1.05,GL,1699847897
278,tolanaro,-25.0319,46.9987,293.19,88,0,0.0,MG,1699848100
279,nizhniy ingash,56.2,96.53,271.76,61,98,2.9,RU,1699848239
280,marsh harbour,26.5412,-77.0636,298.61,63,12,3.84,BS,1699848022
281,san antonio de pale,-1.4014,5.6325,299.36,83,47,4.3,GQ,1699847589
282,tommot,58.9564,126.2925,262.24,89,100,4.0,RU,1699848240
283,turpan,42.9333,89.1667,283.51,22,10,0.48,CN,1699848240
284,nabire,-3.3667,135.4833,305.45,54,44,2.0,ID,1699847895
285,vila franca do campo,37.7167,-25.4333,293.38,99,84,5.84,PT,1699848240
286,siwa oasis,29.2041,25.5195,292.13,77,0,1.83,EG,1699848240
287,asaita,11.5636,41.4394,298.54,70,46,2.87,ET,1699848241
288,pachelma,53.2443,43.3521,280.78,83,100,10.46,RU,1699848241
289,salalah,17.0151,54.0924,299.92,52,0,2.05,OM,1699848241
290,phalodi,27.1333,72.3667,296.3,32,55,3.09,IN,1699848241
291,jayrud,33.8074,36.7404,283.85,69,8,0.89,SY,1699848242
292,ust-nera,64.5667,143.2,249.11,99,99,1.39,RU,1699848217
293,aripuana,-9.1667,-60.6333,298.99,75,42,0.61,BR,1699848242
294,fort mcmurray,56.7268,-111.381,271.88,93,20,2.06,CA,1699847881
295,fale old settlement,-9.3852,-171.2468,302.56,68,57,1.5,TK,1699848243
296,newman,37.3138,-121.0208,288.74,39,96,2.42,US,1699848243
297,zhanaozen,43.3,52.8,282.56,37,71,9.46,KZ,1699848244
298,namibe,-15.1961,12.1522,295.45,76,78,1.22,AO,1699848101
299,kolonia,50.9333,6.95,281.81,89,100,2.57,DE,1699848010
300,darhan,49.4867,105.9228,266.14,63,98,2.0,MN,1699848245
301,kisanga,-7.4362,37.7034,297.28,89,81,0.18,TZ,1699848245
302,pingshan,22.9938,114.7131,294.73,62,43,3.9,CN,1699848245
303,happy valley-goose bay,53.3168,-60.3315,270.32,68,75,5.66,CA,1699847882
304,kandyagash,49.4744,57.4233,275.08,89,63,4.87,KZ,1699848246
305,vega de alatorre,20.0333,-96.6333,294.52,88,99,5.97,MX,1699848246
306,trapani,37.8333,12.6667,289.76,82,93,4.98,IT,1699848247
307,betio village,1.358,172.9211,303.17,75,71,5.02,KI,1699847938
308,amlapura,-8.45,115.6167,303.39,66,22,4.71,ID,1699848247
309,laojunmiao,39.8333,97.7333,277.02,27,80,3.05,CN,1699848247
310,nevel'sk,46.6733,141.8633,272.16,66,100,3.68,RU,1699848248
311,seeb,23.6703,58.1891,298.63,44,70,1.07,OM,1699848248
312,saipan,15.1355,145.701,304.54,74,20,8.75,MP,1699847932
313,buala,-8.145,159.5921,301.86,72,96,2.72,SB,1699848148
314,dunedin,-45.8742,170.5036,286.93,81,100,1.34,NZ,1699847916
315,hadibu,12.65,54.0333,300.14,82,55,5.82,YE,1699848249
316,puerto armuelles,8.2833,-82.8667,300.42,84,100,3.13,PA,1699848146
317,nadym,65.5333,72.5167,264.56,81,14,8.11,RU,1699847936
318,mata-utu,-13.2816,-176.1745,302.02,72,94,5.32,WF,1699847904
319,medina,24.4686,39.6142,297.39,25,20,3.09,SA,1699848250
320,shemysheyka,52.892,45.3928,281.5,76,63,8.98,RU,1699848250
321,muntok,-2.0667,105.1833,304.22,62,27,1.27,ID,1699848250
322,cambria,35.5641,-121.0808,290.16,79,96,1.34,US,1699848251
323,pangkalanbuun,-2.6833,111.6167,300.42,85,96,1.42,ID,1699848251
324,bairnsdale,-37.8333,147.6167,292.07,58,4,2.24,AU,1699848251
325,qianzhou,28.3167,109.7167,283.9,67,92,1.35,CN,1699848080
326,recani,31.2846,-4.2688,291.17,33,75,0.15,MA,1699848252
327,yuzhno-kurilsk,44.0306,145.8556,275.58,80,81,1.9,RU,1699847956
328,juneau,58.3019,-134.4197,273.21,100,4,2.93,US,1699848013
329,le vauclin,14.5452,-60.8388,300.18,78,20,6.17,MQ,1699848252
330,shuangcheng,45.35,126.2833,264.97,83,6,4.78,CN,1699848252
331,loxstedt,53.4667,8.65,277.23,99,69,3.13,DE,1699848253
332,belmonte,-15.8631,-38.8828,297.14,85,14,4.63,BR,1699847886
333,lebu,-37.6167,-73.65,281.1,74,0,6.25,CL,1699848086
334,nassau,40.7507,-73.5829,278.52,70,0,0.0,US,1699847962
335,fortuna,40.5982,-124.1573,287.0,83,0,3.13,US,1699847895
336,kuandian,40.7286,124.7847,273.79,31,0,1.54,CN,1699848253
337,lovisa,60.4566,26.2251,274.42,96,100,3.91,FI,1699848254
338,mulki,13.1,74.8,301.75,69,88,2.57,IN,1699848254
339,ain sefra,32.75,-0.5833,286.58,29,10,0.76,DZ,1699848254
340,riberalta,-10.9833,-66.1,299.1,82,100,1.42,BO,1699848254
341,thurso,58.5927,-3.5259,281.4,81,43,14.67,GB,1699848255
342,kenai,60.5544,-151.2583,268.23,94,0,1.54,US,1699848036
343,bhag,29.0415,67.8239,297.85,23,94,0.65,PK,1699847934
344,mirny,62.5353,113.9611,261.06,85,100,0.89,RU,1699848255
345,baoro,5.6667,15.9667,293.0,97,100,1.59,CF,1699848256
346,san jose del guaviare,2.5729,-72.6459,296.38,97,34,0.83,CO,1699847895
347,la passe,45.5549,-0.8967,289.25,81,92,6.23,FR,1699848256
348,susuman,62.7833,148.1667,247.05,94,64,1.64,RU,1699848256
349,puerto baquerizo moreno,-0.9,-89.6,296.81,83,86,5.84,EC,1699848257
350,chandbali,20.7833,86.7667,300.66,51,56,4.77,IN,1699848257
351,thunder bay,48.4001,-89.3168,279.14,81,100,5.66,CA,1699848010
352,lubang,13.8584,120.124,302.07,75,79,9.96,PH,1699848257
353,mandalgovi,45.7625,106.2708,271.54,20,26,4.19,MN,1699848258
354,ati,13.2154,18.3353,298.98,23,87,3.3,TD,1699848258
355,kismayo,-0.3582,42.5454,300.45,80,82,2.64,SO,1699848258
356,amuntai,-2.4177,115.2494,302.23,77,98,0.91,ID,1699848259
357,kupang,-10.1667,123.5833,307.47,59,75,3.09,ID,1699848259
358,kalemie,-5.9475,29.1947,294.31,92,78,2.24,CD,1699848259
359,sarangani,5.4033,125.4636,301.63,72,75,1.09,PH,1699848135
360,cockburn town,21.4612,-71.1419,301.52,76,3,9.17,TC,1699847719
361,timaru,-44.4,171.25,293.87,50,2,7.38,NZ,1699848010
362,lewiston orchards,46.3804,-116.9754,285.52,72,0,2.57,US,1699848260
363,anna regina,7.2644,-58.5077,298.62,87,59,1.5,GY,1699848261
364,tanggu,39.0211,117.6469,279.13,26,81,4.7,CN,1699848261
365,djidiouia,35.9299,0.8287,289.47,69,0,0.98,DZ,1699848261
366,halifax,44.6453,-63.5724,273.43,87,50,0.89,CA,1699848047
367,nazare,-13.035,-39.0144,293.03,97,1,0.73,BR,1699848262
368,pekan,3.4836,103.3996,303.21,82,100,1.43,MY,1699848262
369,nova sintra,14.8667,-24.7167,296.28,69,31,6.41,CV,1699848263
370,blythe,33.6103,-114.5964,290.45,20,7,1.35,US,1699848033
371,stephenville,32.2207,-98.2023,286.22,86,40,0.0,US,1699848263
372,dourados,-22.2211,-54.8056,303.86,32,49,5.76,BR,1699848263
373,altai,46.3722,96.2583,267.24,57,95,0.98,MN,1699848264
374,pompeu,-19.2244,-44.9353,297.08,34,52,1.19,BR,1699848264
375,klaksvik,62.2266,-6.589,279.66,82,100,12.81,FO,1699847878
376,itaituba,-4.2761,-55.9836,299.74,62,11,0.64,BR,1699848264
377,shahr-e babak,30.1165,55.1186,287.01,23,80,2.34,IR,1699848265
378,rikaze,29.25,88.8833,278.25,11,0,0.61,CN,1699847893
379,sisimiut,66.9395,-53.6735,262.95,88,52,2.49,GL,1699848265
380,heunghae,36.1125,129.3522,281.72,25,0,5.93,KR,1699848266
381,kulhudhuffushi,6.6221,73.07,301.28,73,97,2.49,MV,1699848266
382,santana,-0.0583,-51.1817,301.25,78,0,6.17,BR,1699847877
383,constitucion,-35.3333,-72.4167,283.54,74,1,8.63,CL,1699848266
384,tadine,-21.55,167.8833,296.57,56,39,9.69,NC,1699848266
385,stiens,53.2623,5.7577,278.7,94,100,3.09,NL,1699848267
386,abalak,58.1286,68.5944,272.23,95,59,2.08,RU,1699848267
387,revda,56.801,59.9303,273.93,85,100,1.5,RU,1699848048
388,kerman,30.2832,57.0788,280.07,42,0,2.06,IR,1699848267
389,akureyri,65.6835,-18.0878,274.11,69,75,1.03,IS,1699848268
390,papao,-17.75,-149.55,297.97,80,54,1.24,PF,1699848268
391,coremas,-7.0144,-37.9458,299.41,52,0,3.3,BR,1699848268
392,mana,5.6592,-53.7767,299.19,89,2,4.24,GF,1699848268
393,skovorodino,53.9833,123.9167,270.07,42,26,2.35,RU,1699848269
394,lagoa,39.05,-27.9833,290.41,84,100,5.9,PT,1699848269
395,brookings,44.3114,-96.7984,277.64,65,0,2.06,US,1699848259
396,belinskiy,52.9647,43.4165,281.12,78,100,10.83,RU,1699848270
397,cidade velha,14.9167,-23.6167,297.41,83,0,4.63,CV,1699848270
398,shannon,52.7039,-8.8642,285.45,82,75,16.46,IE,1699848270
399,vargashi,55.3556,65.8467,275.98,92,82,3.01,RU,1699848271
400,isola di capo rizzuto,38.96,17.0933,289.92,76,0,4.94,IT,1699848195
401,mejit,10.2753,170.8646,301.22,82,82,8.56,MH,1699848271
402,rutana,-3.8667,30.1,288.03,91,78,0.37,BI,1699848272
403,bondo,3.8146,23.6866,293.24,99,100,0.54,CD,1699848272
404,kruisfontein,-34.0033,24.7314,285.52,69,5,3.3,ZA,1699848273
405,borodino,55.9106,94.8983,270.78,79,100,1.63,RU,1699848273
406,bereket,39.2446,55.5154,287.01,45,94,6.58,TM,1699848273
407,fuyu,45.1833,124.8167,270.19,77,3,4.73,CN,1699848274
408,lubumbashi,-11.6609,27.4794,290.99,97,93,0.18,CD,1699848274
409,princeville,45.7668,-61.2985,276.16,94,100,2.57,CA,1699848189
410,polyarnyy,69.1989,33.4478,263.44,95,93,4.38,RU,1699847929
411,thinadhoo,0.5333,72.9333,299.07,86,100,4.11,MV,1699848090
412,marquetalia,5.2966,-75.055,292.09,97,100,0.84,CO,1699848275
413,mocoreta,-30.6189,-57.9634,293.3,98,100,4.57,AR,1699848275
414,mbabane,-26.3167,31.1333,285.32,83,100,1.11,SZ,1699848224
415,colonia,50.9333,6.95,281.72,89,100,2.57,DE,1699847643
416,ta`u,-14.2336,-169.5144,301.22,77,26,3.19,AS,1699848276
417,bridlington,54.0831,-0.1919,282.6,93,100,3.58,GB,1699848276
418,tamanrasset,22.785,5.5228,288.1,20,0,2.06,DZ,1699848276
419,xilin hot,43.9667,116.0333,268.04,60,2,5.14,CN,1699847928
420,poltavka,54.3663,71.7632,277.11,91,93,4.43,RU,1699848276
421,taoudenni,22.6783,-3.9836,297.03,22,4,5.33,ML,1699848276
422,strezhevoy,60.7333,77.5889,273.13,98,100,2.68,RU,1699848277
423,salekhard,66.53,66.6019,260.04,89,21,3.44,RU,1699848277
424,xiongzhou,25.1167,114.3,289.14,58,90,2.46,CN,1699848277
425,kayangel,8.0823,134.7173,302.33,75,100,7.3,PW,1699847909
426,lamu,-2.2717,40.902,298.27,85,91,1.87,KE,1699847874
427,gadzhiyevo,69.2551,33.3362,262.93,96,96,4.23,RU,1699848277
428,masallatah,32.6167,14.0,291.5,60,0,4.09,LY,1699848277
429,fussen,47.8739,12.1695,281.03,96,100,3.8,DE,1699848278
430,chulakkurgan,43.765,69.1814,276.41,70,6,1.41,KZ,1699848278
431,nago,26.5881,127.9761,295.39,63,89,8.81,JP,1699847918
432,baruun-urt,46.6806,113.2792,264.87,79,3,6.59,MN,1699847884
433,paita,-5.0892,-81.1144,293.12,89,0,5.03,PE,1699848278
434,fukuecho,32.6881,128.8419,285.35,47,40,6.17,JP,1699848278
435,elmali,36.7358,29.9177,283.28,89,100,1.99,TR,1699848279
436,beni saf,35.301,-1.3823,286.31,80,0,0.7,DZ,1699848279
437,braganca paulista,-22.94,-46.5556,295.62,51,100,1.48,BR,1699848280
438,jiayuguan,39.8167,98.3,275.97,31,64,3.72,CN,1699848280
439,altay,47.8667,88.1167,273.29,93,100,0.84,CN,1699848281
440,shengli,37.4564,118.4856,279.55,25,96,3.59,CN,1699848281
441,lata,40.1629,-8.3327,289.86,96,67,1.77,PT,1699847872
442,yugo-kamskiy,57.7053,55.5894,274.16,89,100,4.38,RU,1699848281
443,klyuchi,52.2667,79.1667,277.84,82,100,4.97,RU,1699848282
444,mount pearl,47.5166,-52.7813,271.46,81,100,5.14,CA,1699848282
445,vicuna,-30.0319,-70.7081,283.0,56,11,0.43,CL,1699848282
446,hasaki,35.7333,140.8333,287.37,59,100,6.3,JP,1699848282
447,gobernador virasora,-28.05,-56.0333,297.04,88,49,1.79,AR,1699848282
448,bartica,6.4,-58.6167,299.33,99,12,0.37,GY,1699848283
449,murzuq,25.9155,13.9184,290.75,35,0,2.88,LY,1699848283
450,salinopolis,-0.6136,-47.3561,300.74,77,7,6.7,BR,1699848283
451,port-vila,-17.7338,168.3219,296.93,88,100,4.12,VU,1699848130
452,pundong,-7.9522,110.3486,304.21,62,73,3.2,ID,1699848283
453,necochea,-38.5473,-58.7368,279.86,65,0,2.64,AR,1699848284
454,yamada,39.4667,141.95,281.71,55,97,2.04,JP,1699848284
455,acarau,-2.8856,-40.12,298.86,78,0,5.94,BR,1699847920
456,bathsheba,13.2167,-59.5167,301.49,83,40,7.72,BB,1699848087
457,qarazhal,48.0078,70.7903,275.99,85,93,2.82,KZ,1699848284
458,meadow lakes,61.6247,-149.6011,268.07,93,0,0.0,US,1699848284
459,goundam,16.4145,-3.6708,297.55,11,1,4.3,ML,1699848285
460,jutai,-5.1833,-68.9,297.07,93,16,1.22,BR,1699848285
461,banda aceh,5.5577,95.3222,302.48,71,62,4.52,ID,1699847907
462,ketchikan,55.3422,-131.6461,280.14,61,0,4.63,US,1699848272
463,nanyuki,0.0167,37.0728,288.3,91,83,0.35,KE,1699848285
464,capilla del monte,-30.8609,-64.5251,284.69,29,65,7.78,AR,1699848285
465,broken hill,-31.95,141.4333,303.53,14,48,4.59,AU,1699848286
466,progreso,21.2833,-89.6667,299.32,87,100,9.6,MX,1699848286
467,cooper's town,26.8667,-77.5167,298.37,71,18,3.57,BS,1699848286
468,grenada,37.1882,-3.6067,280.35,93,0,1.03,ES,1699848080
469,houlton,46.1262,-67.8403,269.38,77,0,3.09,US,1699848286
470,brisas de zicatela,15.8369,-97.0419,301.44,57,0,2.57,MX,1699848286
471,whakatane,-37.9585,176.9854,298.08,53,2,3.34,NZ,1699848287
472,enewetak,11.3474,162.3373,300.78,81,100,6.93,MH,1699847898
473,delmiro gouveia,-9.3886,-37.9992,294.73,79,2,1.96,BR,1699848287
474,sirmaur,24.85,81.3833,296.8,48,23,1.03,IN,1699848287
475,priargunsk,50.3691,119.1012,263.63,78,29,1.89,RU,1699848288
476,saint ann's bay,18.4358,-77.201,300.31,82,45,4.54,JM,1699848288
477,suva,-18.1416,178.4415,296.86,94,75,4.63,FJ,1699848055
478,luena,-11.7833,19.9167,290.62,96,100,1.01,AO,1699848288
479,weno,7.4515,151.8468,301.77,70,44,4.77,FM,1699848288
480,saint-joseph,-21.3667,55.6167,298.41,77,36,1.85,RE,1699848289
481,oranjemund,-28.55,16.4333,287.68,89,0,8.39,NA,1699848289
482,moranbah,-22.0016,148.0466,306.72,22,0,7.02,AU,1699848289
483,tselinnoye,53.0833,85.6667,273.83,91,60,4.49,RU,1699848289
484,dryden,49.7833,-92.7503,276.31,87,100,8.23,CA,1699848289
485,mil'kovo,55.6078,37.7956,278.38,95,100,5.53,RU,1699848093
486,island harbour,50.724,-1.2758,288.11,94,100,3.58,GB,1699848290
487,labytnangi,66.6572,66.4183,259.72,90,51,3.32,RU,1699848290
488,cacheu,12.2706,-16.1658,296.2,68,21,2.37,GW,1699848290
489,mossel bay,-34.1831,22.146,284.11,75,2,1.84,ZA,1699847924
490,victorica,-36.2151,-65.4359,283.82,33,1,2.3,AR,1699848290
491,san luis de la loma,17.2706,-100.8939,299.8,84,52,2.33,MX,1699848290
492,matthew town,20.95,-73.6667,301.01,80,6,7.92,BS,1699848291
493,ouezzane,34.7971,-5.5822,289.44,52,82,1.26,MA,1699848291
494,barth,54.3635,12.7249,279.85,86,54,6.48,DE,1699848291
495,pratt,37.6439,-98.7376,281.27,87,0,0.0,US,1699848232
496,itoman,26.1247,127.6694,295.16,53,40,12.35,JP,1699848282
497,walvis bay,-22.9575,14.5053,287.68,88,0,3.09,NA,1699847908
498,kidal,18.4411,1.4078,296.56,13,0,4.54,ML,1699848291
499,dolores,-36.3132,-57.6792,281.68,79,46,2.89,AR,1699848292
500,bestobe,52.4994,73.0975,277.15,87,100,3.71,KZ,1699848292
501,mizdah,31.4451,12.9801,288.24,51,0,1.52,LY,1699848292
502,lindsay,36.203,-119.0882,285.28,65,0,1.54,US,1699848292
503,bodden town,19.2833,-81.25,302.15,87,20,5.66,KY,1699848293
504,ciudad valles,21.9833,-99.0167,292.56,99,100,0.32,MX,1699848293
505,taishan,22.2514,112.7799,296.54,61,69,5.29,CN,1699848293
506,prince rupert,54.3161,-130.3201,280.98,73,100,3.6,CA,1699848293
507,san martin,-33.081,-68.4681,286.45,29,0,3.17,AR,1699848293
508,cheney,47.4874,-117.5758,279.26,89,100,2.57,US,1699848293
509,sao vicente,-23.9631,-46.3919,306.25,26,9,1.63,BR,1699848293
510,tsiombe,-25.3,45.4833,298.3,59,0,3.96,MG,1699848294
511,dalbandin,28.8947,64.4101,291.66,30,67,3.32,PK,1699848294
512,andovoranto,-18.95,49.1,297.0,76,98,0.93,MG,1699848294
513,scottburgh,-30.2867,30.7532,291.45,75,98,2.74,ZA,1699848294
514,o'fallon,38.8106,-90.6999,285.09,51,25,0.45,US,1699848021
515,queenstown,-31.8976,26.8753,282.73,89,0,0.55,ZA,1699848294
516,shingu,33.7333,135.9833,285.88,54,18,3.55,JP,1699848010
517,i-n-salah,27.1935,2.4607,293.08,35,18,4.96,DZ,1699848294
518,mangalia,43.8,28.5833,284.02,46,99,0.72,RO,1699848295
519,port isabel,26.0734,-97.2086,290.41,100,100,8.23,US,1699848295
520,takoradi,4.8845,-1.7554,297.34,97,23,0.8,GH,1699848295
521,khovd,48.0056,91.6419,269.36,87,98,1.34,MN,1699848291
522,fort st. john,56.2499,-120.8529,271.09,74,75,3.09,CA,1699848046
523,al harithah,30.7186,47.7208,290.13,55,100,0.0,IQ,1699848295
524,castillos,-34.1667,-53.8333,288.42,91,67,3.28,UY,1699848296
525,orchard homes,46.8633,-114.0484,278.62,75,0,2.24,US,1699848296
526,bouarfa,32.53,-1.95,287.99,37,18,1.12,MA,1699848296
527,chekmagush,55.1319,54.6556,276.17,81,100,7.89,RU,1699848296
528,duku,11.2361,4.9073,296.4,24,29,2.77,NG,1699848296
529,pontianak,-0.0333,109.3333,300.14,83,40,2.06,ID,1699848041
530,afaahiti,-17.75,-149.2833,297.08,80,56,2.56,PF,1699848103
531,yoichi,43.2039,140.7703,277.14,69,96,8.21,JP,1699848297
532,los llanos de aridane,28.6585,-17.9182,294.33,38,20,4.02,ES,1699848297
533,belokurikha,51.9959,84.9896,275.98,96,100,2.5,RU,1699847920
534,sena madureira,-9.0656,-68.6569,298.54,72,11,1.25,BR,1699848297
535,banff,51.1762,-115.5698,273.72,80,100,1.03,CA,1699848023
536,balsta,59.5671,17.5278,274.42,88,100,4.81,SE,1699848298
537,lyantor,61.6195,72.1555,265.35,92,79,4.82,RU,1699848298
538,topolobampo,25.6,-109.05,295.1,68,0,2.06,MX,1699848298
539,jijiga,9.35,42.8,289.69,83,38,3.79,ET,1699848298
540,waddan,29.1614,16.139,290.13,79,0,0.87,LY,1699848298
541,yakeshi,49.2833,120.7333,262.08,90,91,2.24,CN,1699848299
542,gamba,-2.65,10.0,297.93,89,96,1.53,GA,1699848299
543,angaur state,6.906,134.13,302.28,74,90,5.72,PW,1699848299
544,natal,-5.795,-35.2094,297.27,83,20,3.09,BR,1699848299
545,kuqa,41.7278,82.9364,279.44,54,92,0.86,CN,1699848299
546,tidjikja,18.5564,-11.4271,296.99,13,5,4.27,MR,1699848299
547,asosa,10.0667,34.5333,290.35,85,71,2.38,ET,1699848299
548,daru,-9.0763,143.2092,301.16,65,74,3.95,PG,1699848300
549,mahibadhoo,3.7833,72.9667,301.28,70,82,1.06,MV,1699847912
550,kibakwe,-6.7167,36.3667,293.04,85,95,1.31,TZ,1699848300
551,murghob,38.1702,73.9667,265.25,73,9,2.75,TJ,1699848300
552,ponta delgada,37.7333,-25.6667,293.55,94,75,4.12,PT,1699847726
553,suozhen,36.9539,118.1047,279.24,28,100,2.66,CN,1699848300
